[
  {
    "name": "海雲台",
    "name_en": "Haeundae",
    "lat": 35.158,
    "lon": 129.16,
    "country": "韓國",
    "region": "亞洲",
    "quote": "我大概我住在釜山是住海云台那个区域",
    "context": "本集主要讨论的釜山区域，拥有美丽的海滩与住宿区"
  },
  {
    "name": "The Bay 101",
    "name_en": "The Bay 101",
    "lat": 35.156,
    "lon": 129.152,
    "country": "韓國",
    "region": "亞洲",
    "quote": "叫做Le Bay 101",
    "context": "孔刘代言手机拍摄爆红的看夜景名胜"
  },
  {
    "name": "札嘎其市場",
    "name_en": "Jagalchi Market",
    "lat": 35.097,
    "lon": 129.027,
    "country": "韓國",
    "region": "亞洲",
    "quote": "他们那边有一个加嘎鸡市场",
    "context": "品尝新鲜海鲜与生章鱼的著名传统市场"
  },
  {
    "name": "青沙浦天空步道",
    "name_en": "Cheongsapo Daritdol Observatory",
    "lat": 35.164,
    "lon": 129.2,
    "country": "韓國",
    "region": "亞洲",
    "quote": "它还有很多的天空步道",
    "context": "建于海边悬崖上的透明玻璃观景步道"
  },
  {
    "name": "青沙浦紅白燈塔",
    "name_en": "Cheongsapo Twin Lighthouses",
    "lat": 35.16,
    "lon": 129.193,
    "country": "韓國",
    "region": "亞洲",
    "quote": "像我们那时候就有去那个双胞胎的那个红白灯塔",
    "context": "天空步道附近的可爱海港拍照景点"
  },
  {
    "name": "Cafe Rooftop",
    "name_en": "Cafe Rooftop",
    "lat": 35.161,
    "lon": 129.194,
    "country": "韓國",
    "region": "亞洲",
    "quote": "那个Rooftop",
    "context": "青沙浦著名的网美咖啡厅，可看海景"
  },
  {
    "name": "西面",
    "name_en": "Seomyeon",
    "lat": 35.157,
    "lon": 129.06,
    "country": "韓國",
    "region": "亞洲",
    "quote": "其实我们去西面",
    "context": "釜山知名的逛街商圈"
  },
  {
    "name": "樂天百貨 (釜山總店)",
    "name_en": "Lotte Department Store",
    "lat": 35.156,
    "lon": 129.055,
    "country": "韓國",
    "region": "亞洲",
    "quote": "就是有乐天百婚的边",
    "context": "位于西面的大型百货公司"
  },
  {
    "name": "釜山塔",
    "name_en": "Busan Tower",
    "lat": 35.1,
    "lon": 129.032,
    "country": "韓國",
    "region": "亞洲",
    "quote": "它有那个高空塔可以看",
    "context": "可俯瞰釜山市景的高空塔"
  },
  {
    "name": "APEC世峰樓",
    "name_en": "Nurimaru APEC House",
    "lat": 35.152,
    "lon": 129.151,
    "country": "韓國",
    "region": "亞洲",
    "quote": "或是什么APEC的那个侍奉会之前开会的场所",
    "context": "海云台海岸步道沿途的国际会议场所"
  },
  {
    "name": "黃玉公主美人魚雕像",
    "name_en": "Hwangok Princess Mermaid Statue",
    "lat": 35.154,
    "lon": 129.153,
    "country": "韓國",
    "region": "亞洲",
    "quote": "你就会经过可能人鱼雕像",
    "context": "海云台海岸步道沿途的雕像景点"
  }
]