[
  {
    "name": "奧斯陸大學",
    "name_en": "University of Oslo",
    "lat": 59.939,
    "lon": 10.722,
    "country": "挪威",
    "region": "歐洲",
    "quote": "去了挪威的奧斯陸大學當交換學生",
    "context": "講者擔任交換學生的學校"
  },
  {
    "name": "聖壇岩",
    "name_en": "Preikestolen",
    "lat": 58.987,
    "lon": 6.188,
    "country": "挪威",
    "region": "歐洲",
    "quote": "第一個就是聖壇岩它就是一個很像講台的那個地方",
    "context": "挪威三大奇岩之一，熱門打卡景點"
  },
  {
    "name": "奇蹟岩",
    "name_en": "Kjeragbolten",
    "lat": 59.034,
    "lon": 6.594,
    "country": "挪威",
    "region": "歐洲",
    "quote": "第二個是奇蹟岩這個很多人應該都有聽過就是他就是一顆石頭夾在兩個山的中間",
    "context": "挪威三大奇岩之一，夾在山壁間的石頭"
  },
  {
    "name": "巨人之舌",
    "name_en": "Trolltunga",
    "lat": 60.132,
    "lon": 6.74,
    "country": "挪威",
    "region": "歐洲",
    "quote": "第三個就叫做巨人之蛇然後它是一個很像舌頭然後就是一個很尖的就凸出來",
    "context": "挪威三大奇岩之一，從山壁凸出的岩石"
  },
  {
    "name": "卡爾約翰大道",
    "name_en": "Karl Johans gate",
    "lat": 59.914,
    "lon": 10.738,
    "country": "挪威",
    "region": "歐洲",
    "quote": "在那個市中心最大條的那條人行街道上叫做卡爾約翰大道",
    "context": "奧斯陸主要街道，國慶日遊行地點"
  },
  {
    "name": "奧斯陸皇宮",
    "name_en": "Royal Palace, Oslo",
    "lat": 59.916,
    "lon": 10.727,
    "country": "挪威",
    "region": "歐洲",
    "quote": "在那邊就是走然後就走一走這樣子然後走到皇宮",
    "context": "國慶日遊行終點，皇室居住地"
  },
  {
    "name": "特羅姆瑟",
    "name_en": "Tromsø",
    "lat": 69.649,
    "lon": 18.955,
    "country": "挪威",
    "region": "極地",
    "quote": "它就是一個極光小鎮然後叫做特羅姆色",
    "context": "位於北極圈內的極光小鎮"
  }
]