[
  {
    "name": "瓦卢比利斯 (罗马帝国遗迹)",
    "name_en": "Volubilis",
    "lat": 34.072,
    "lon": -5.554,
    "country": "摩洛哥",
    "region": "非洲",
    "quote": "其实里面有一个知名的景点 是你会你到那个景点你以为你在希腊",
    "context": "位于摩洛哥境内，一般旅行团较少造访的罗马帝国遗迹。"
  },
  {
    "name": "卡鲁因大学 (现为清真寺)",
    "name_en": "University of al-Qarawiyyin",
    "lat": 34.064,
    "lon": -4.973,
    "country": "摩洛哥",
    "region": "非洲",
    "quote": "当时全世界第一所大学就出现在摩洛哥的菲斯",
    "context": "建于黑暗时代的世界上第一所大学，现已转变为清真寺。"
  },
  {
    "name": "菲斯古城",
    "name_en": "Fes el Bali (Medina of Fez)",
    "lat": 34.061,
    "lon": -4.978,
    "country": "摩洛哥",
    "region": "非洲",
    "quote": "所以整个菲斯古城里面 还包含了学生宿舍啊",
    "context": "保留了世界上最古老大学相关建筑的阿拉伯老城区。"
  },
  {
    "name": "马拉喀什老城区 (Medina)",
    "name_en": "Medina of Marrakesh",
    "lat": 31.63,
    "lon": -7.989,
    "country": "摩洛哥",
    "region": "非洲",
    "quote": "所以为什么我们说 玩摩洛哥你一定要去Medina 甚至我们要住在Medina里面",
    "context": "融合了千年历史与现代设计师工作室的迷人旧城区。"
  },
  {
    "name": "德吉玛广场 (大市集)",
    "name_en": "Jemaa el-Fnaa",
    "lat": 31.625,
    "lon": -7.989,
    "country": "摩洛哥",
    "region": "非洲",
    "quote": "里面还有一个很有生命力的大市集 在这边 就全非洲最大的市集",
    "context": "位于马拉喀什，充满热情摊贩与表演的非洲最大夜市。"
  },
  {
    "name": "皇家曼苏尔酒店 (国王直营饭店)",
    "name_en": "Royal Mansour Marrakech",
    "lat": 31.626,
    "lon": -7.997,
    "country": "摩洛哥",
    "region": "非洲",
    "quote": "其中还有两间非常顶级的饭店 老板是谁 老板是摩洛哥国王",
    "context": "摩洛哥国王直营的顶级奢华饭店，曾因皇室需求而包场。"
  }
]