[
  {
    "name": "種族隔離博物館",
    "name_en": "Apartheid Museum",
    "lat": -26.237,
    "lon": 28.002,
    "country": "南非",
    "region": "非洲",
    "quote": "有一個必看的就是那個種族隔離博物館",
    "context": "探討南非種族隔離歷史與曼德拉的抗爭"
  },
  {
    "name": "索維托",
    "name_en": "Soweto",
    "lat": -26.267,
    "lon": 27.858,
    "country": "南非",
    "region": "非洲",
    "quote": "叫做Soweto",
    "context": "參加當地的導覽團，了解當地生活與歷史"
  },
  {
    "name": "奧蘭多發電廠 (索維托火力發電廠)",
    "name_en": "Orlando Towers",
    "lat": -26.254,
    "lon": 27.926,
    "country": "南非",
    "region": "非洲",
    "quote": "它是一個廢棄的火力發電廠",
    "context": "體驗在兩座火力發電廠中間的高空彈跳"
  },
  {
    "name": "曼德拉故居",
    "name_en": "Mandela House",
    "lat": -26.238,
    "lon": 27.904,
    "country": "南非",
    "region": "非洲",
    "quote": "他那邊也有曼德拉紀念館",
    "context": "參觀曼德拉曾經生活的住所及遺物"
  },
  {
    "name": "桌山",
    "name_en": "Table Mountain",
    "lat": -33.962,
    "lon": 18.409,
    "country": "南非",
    "region": "非洲",
    "quote": "你知聽過那個table mountain嗎",
    "context": "開普敦的著名地標，平頂山"
  },
  {
    "name": "海豹島",
    "name_en": "Seal Island",
    "lat": -34.137,
    "lon": 18.582,
    "country": "南非",
    "region": "非洲",
    "quote": "我太靠近那個海豹島了嘛",
    "context": "在開普敦海域與海豹一起潛水"
  },
  {
    "name": "好望角",
    "name_en": "Cape of Good Hope",
    "lat": -34.356,
    "lon": 18.471,
    "country": "南非",
    "region": "非洲",
    "quote": "應該在那個好望角那邊",
    "context": "觀賞野生企鵝及拍照打卡的景點"
  },
  {
    "name": "羅本島",
    "name_en": "Robben Island",
    "lat": -33.807,
    "lon": 18.369,
    "country": "南非",
    "region": "非洲",
    "quote": "有個地方叫Ruban Island",
    "context": "曼德拉被囚禁的地方，由前獄友擔任導遊"
  },
  {
    "name": "克魯格國家公園",
    "name_en": "Kruger National Park",
    "lat": -23.988,
    "lon": 31.554,
    "country": "南非",
    "region": "非洲",
    "quote": "但是呢我去克福哥國家公園",
    "context": "參加 Safari 尋找非洲五霸"
  }
]