[
  {
    "name": "馬賽馬拉",
    "name_en": "Maasai Mara National Reserve",
    "lat": -1.49,
    "lon": 35.143,
    "country": "肯亞",
    "region": "非洲",
    "quote": "那所以你在馬賽馬拉看到那個大千禧 感覺應該很爽",
    "context": "觀賞動物大遷徙的國家保護區，分享了遇見獅子的經歷。"
  },
  {
    "name": "莫希 (Moshi)",
    "name_en": "Moshi",
    "lat": -3.339,
    "lon": 37.336,
    "country": "坦尚尼亞",
    "region": "非洲",
    "quote": "去坦尚尼亞的Moshi Moshi Moshi這個一個城鎮 就是很多人去Kiri Manjaro山",
    "context": "攀登吉力馬札羅山前的休息與出發城鎮。"
  },
  {
    "name": "吉力馬札羅山",
    "name_en": "Mount Kilimanjaro",
    "lat": -3.067,
    "lon": 37.355,
    "country": "坦尚尼亞",
    "region": "非洲",
    "quote": "就是很多人去Kiri Manjaro山 可以坐最高峰的時候 會在這個鎮裡面 開始休息幾天",
    "context": "東非知名高山，講者考慮去爬但因費用太貴而放棄。"
  },
  {
    "name": "桑吉巴島",
    "name_en": "Zanzibar",
    "lat": -6.165,
    "lon": 39.202,
    "country": "坦尚尼亞",
    "region": "非洲",
    "quote": "所以山吉巴島是一個 有名的度假小島",
    "context": "擁有藍綠色海水的度假勝地，深受穆斯林文化影響。"
  },
  {
    "name": "石頭鎮",
    "name_en": "Stone Town",
    "lat": -6.162,
    "lon": 39.193,
    "country": "坦尚尼亞",
    "region": "非洲",
    "quote": "三七八有石頭鎮 就是他們 那個主要的鎮 還有一些 以前的一些文化的東西",
    "context": "桑吉巴島上具有豐富歷史與文化遺產的主要城鎮。"
  }
]