[
  {
    "name": "塔克西姆廣場",
    "name_en": "Taksim Square",
    "lat": 41.037,
    "lon": 28.985,
    "country": "土耳其",
    "region": "歐洲",
    "quote": "如果你去伊斯坦堡观光，你一定一定会去的区域叫做Taxim",
    "context": "伊斯坦堡的中心點與抗議熱區，被類比為西門町。"
  },
  {
    "name": "藍色清真寺",
    "name_en": "Blue Mosque",
    "lat": 41.005,
    "lon": 28.976,
    "country": "土耳其",
    "region": "歐洲",
    "quote": "你不可能住在蓝色青森寺旁边每天吧",
    "context": "著名的觀光景點，講者用來對比觀光區與居住區的差異。"
  },
  {
    "name": "博斯普魯斯海峽",
    "name_en": "Bosphorus",
    "lat": 41.05,
    "lon": 29.016,
    "country": "土耳其",
    "region": "歐洲",
    "quote": "我会想要住在海峡旁边的饭店",
    "context": "講者提到更傾向居住在海峽附近的區域而非觀光中心。"
  },
  {
    "name": "獨立大道",
    "name_en": "Istiklal Avenue",
    "lat": 41.033,
    "lon": 28.979,
    "country": "土耳其",
    "region": "歐洲",
    "quote": "长期摆在Taxim的广场跟往那个独立大道上面的地方走的一些小区域",
    "context": "緊鄰塔克西姆廣場的主要商業街，提到常有柵欄與警力。"
  },
  {
    "name": "伊斯坦堡市政府",
    "name_en": "Istanbul Metropolitan Municipality",
    "lat": 41.014,
    "lon": 28.956,
    "country": "土耳其",
    "region": "歐洲",
    "quote": "顶多在伊斯坦堡市政府前面，但通常如果在市政府前面，他就是要特别对市政府或是市长",
    "context": "提及特定政治抗議活動發生的地點。"
  },
  {
    "name": "駐土耳其代表處",
    "name_en": "Taipei Economic and Cultural Mission in Ankara",
    "lat": 39.897,
    "lon": 32.862,
    "country": "土耳其",
    "region": "亞洲",
    "quote": "可是像因为台湾就太小，所以我们就只有在安卡拉",
    "context": "提到台灣駐土耳其辦事處的所在地點。"
  }
]