[
  {
    "name": "藍色清真寺",
    "name_en": "Blue Mosque",
    "lat": 41.005,
    "lon": 28.976,
    "country": "土耳其",
    "region": "歐洲",
    "quote": "你不可能住在藍色青森寺旁邊每天吧",
    "context": "提到觀光客常去的地方，但住在那邊會被遊客煩死。"
  },
  {
    "name": "博斯普魯斯海峽",
    "name_en": "Bosphorus Strait",
    "lat": 41.02,
    "lon": 29.01,
    "country": "土耳其",
    "region": "歐洲",
    "quote": "我會想要住在海峽旁邊的飯店",
    "context": "比起藍色清真寺，受訪者更偏好住在海峽邊的飯店。"
  },
  {
    "name": "塔克辛廣場",
    "name_en": "Taksim Square",
    "lat": 41.036,
    "lon": 28.985,
    "country": "土耳其",
    "region": "歐洲",
    "quote": "如果你去伊斯坦堡觀光,你一定一定會去的區域叫做Taxim",
    "context": "伊斯坦堡的中心區域與交通樞紐，也是抗議活動熱區。"
  },
  {
    "name": "獨立大道",
    "name_en": "Istiklal Avenue",
    "lat": 41.033,
    "lon": 28.978,
    "country": "土耳其",
    "region": "歐洲",
    "quote": "長期擺在Taxim的廣場跟往那個獨立大道上面的地方走的一些小區域",
    "context": "緊鄰塔克辛廣場的熱鬧商業街，常有警方設置路障。"
  },
  {
    "name": "伊斯坦堡市政府",
    "name_en": "Istanbul Metropolitan Municipality",
    "lat": 41.014,
    "lon": 28.951,
    "country": "土耳其",
    "region": "歐洲",
    "quote": "頂多在伊斯坦堡市政府前面",
    "context": "提到特定的政爭或抗議活動有時會在此舉行。"
  },
  {
    "name": "土耳其總統府",
    "name_en": "Presidential Complex",
    "lat": 39.931,
    "lon": 32.799,
    "country": "土耳其",
    "region": "亞洲",
    "quote": "因為總統府就是安卡啦",
    "context": "說明土耳其的政治中心位於首都安卡拉而非伊斯坦堡。"
  },
  {
    "name": "凱達格蘭大道",
    "name_en": "Ketagalan Boulevard",
    "lat": 25.04,
    "lon": 121.516,
    "country": "台灣",
    "region": "台灣",
    "quote": "這也很合理的,就像台灣有抗議就會在凱道是一樣的概念",
    "context": "受訪者以此對比塔克辛廣場在伊斯坦堡的政治象徵意義。",
    "image": "https://upload.wikimedia.org/wikipedia/commons/thumb/3/3e/Ketagalan_Boulevard.jpg/330px-Ketagalan_Boulevard.jpg"
  },
  {
    "name": "西門町",
    "name_en": "Ximending",
    "lat": 25.044,
    "lon": 121.506,
    "country": "台灣",
    "region": "台灣",
    "quote": "Taxim就有點像西門町這樣子",
    "context": "用來向台灣聽眾解釋塔克辛廣場在當地的繁華與重要性。",
    "image": "https://upload.wikimedia.org/wikipedia/commons/thumb/e/e8/%E5%BE%9E%E5%B1%88%E8%87%A3%E6%B0%8F%E8%A5%BF%E9%96%80%E9%96%80%E5%B8%82%E5%88%B0%E9%8C%A2%E6%AB%83%E5%8F%B0%E5%8C%97%E4%B8%AD%E8%8F%AF%E6%96%B0%E9%A4%A8_20211204.jpg/330px-%E5%BE%9E%E5%B1%88%E8%87%A3%E6%B0%8F%E8%A5%BF%E9%96%80%E9%96%80%E5%B8%82%E5%88%B0%E9%8C%A2%E6%AB%83%E5%8F%B0%E5%8C%97%E4%B8%AD%E8%8F%AF%E6%96%B0%E9%A4%A8_20211204.jpg"
  }
]