[
  {
    "name": "塔克西姆廣場",
    "name_en": "Taksim Square",
    "lat": 41.037,
    "lon": 28.985,
    "country": "土耳其",
    "region": "歐洲",
    "quote": "如果你去伊斯坦堡觀光，你一定一定會去的區域叫做Taxim... 伊斯坦堡西門町",
    "context": "伊斯坦堡的現代中心與商業樞紐，也是著名的示威抗議熱區。"
  },
  {
    "name": "獨立大道",
    "name_en": "İstiklal Avenue",
    "lat": 41.033,
    "lon": 28.979,
    "country": "土耳其",
    "region": "歐洲",
    "quote": "它就是柵欄，然後它會一直長期擺在Taxim的廣場跟往那個獨立大道上面的地方走的一些小區域",
    "context": "連接塔克西姆廣場的著名步行街，節目中提到此區戒備極為森嚴。"
  },
  {
    "name": "蘇丹艾哈邁德清真寺（藍色清真寺）",
    "name_en": "Sultan Ahmed Mosque (Blue Mosque)",
    "lat": 41.005,
    "lon": 28.977,
    "country": "土耳其",
    "region": "歐洲",
    "quote": "你不可能住在藍色清真寺旁邊每天吧，那也不是不行啦，這樣你錢夠多",
    "context": "伊斯坦堡最著名的古蹟地標，被用來代表觀光客雲集的舊城區。"
  },
  {
    "name": "博斯普魯斯海峽",
    "name_en": "Bosphorus Strait",
    "lat": 41.013,
    "lon": 29.004,
    "country": "土耳其",
    "region": "歐洲",
    "quote": "我不會想要住在藍色清真寺旁邊的飯店，我會想要住在海峽旁邊的飯店",
    "context": "橫跨歐亞的海峽，來賓提到相比清真寺更偏好住在海峽沿岸。"
  },
  {
    "name": "伊斯坦堡市政府",
    "name_en": "Istanbul Metropolitan Municipality",
    "lat": 41.014,
    "lon": 28.952,
    "country": "土耳其",
    "region": "歐洲",
    "quote": "頂多在伊斯坦堡市政府前面，但通常如果在市政府前面，他就是要特別對市政府或是市長",
    "context": "提到抗議活動若具有特定訴求時會舉辦的地點。"
  }
]