[
  {
    "name": "丹吉爾",
    "name_en": "Tangier",
    "lat": 35.759,
    "lon": -5.834,
    "country": "摩洛哥",
    "region": "非洲",
    "quote": "出生在摩洛哥一個叫做丹吉爾的地方",
    "context": "伊本巴圖塔的出生地，也是他長達二十餘年旅程的起點。"
  },
  {
    "name": "特萊姆森城",
    "name_en": "Tlemcen",
    "lat": 34.882,
    "lon": -1.317,
    "country": "阿爾及利亞",
    "region": "非洲",
    "quote": "他就先來到今天的阿爾吉利亞的一個叫特萊姆森城的地方",
    "context": "伊本巴圖塔離開家鄉後，在北非旅程中抵達的第一個重要城鎮。"
  },
  {
    "name": "阿爾吉爾城",
    "name_en": "Algiers",
    "lat": 36.753,
    "lon": 3.058,
    "country": "阿爾及利亞",
    "region": "非洲",
    "quote": "他走到今天那個阿爾吉利亞的首都，阿爾吉爾城",
    "context": "北非的重要港口城市，伊本巴圖塔在此積極尋找往東方的商隊。"
  },
  {
    "name": "土尼斯城",
    "name_en": "Tunis",
    "lat": 36.806,
    "lon": 10.181,
    "country": "突尼西亞",
    "region": "非洲",
    "quote": "他在那個土尼斯城的大街上大哭",
    "context": "伊本巴圖塔在此地因孤獨而崩潰大哭，隨後在此成婚並進一步出發。"
  },
  {
    "name": "亞歷山大港",
    "name_en": "Port of Alexandria",
    "lat": 31.2,
    "lon": 29.919,
    "country": "埃及",
    "region": "非洲",
    "quote": "然後去看那個亞歷山大港",
    "context": "埃及著名的歷史港口，是伊本巴圖塔進入埃及後參觀的首要站點。"
  },
  {
    "name": "吉薩金字塔",
    "name_en": "Giza Pyramids",
    "lat": 29.979,
    "lon": 31.134,
    "country": "埃及",
    "region": "非洲",
    "quote": "他就描述一下金字塔",
    "context": "伊本巴圖塔在埃及時所見到的古代遺跡，其在遊記中對此有所描述。"
  },
  {
    "name": "加薩",
    "name_en": "Gaza",
    "lat": 31.501,
    "lon": 34.467,
    "country": "巴勒斯坦",
    "region": "亞洲",
    "quote": "出發大概一個半月之後，他就離開了非洲，然後到今天的加薩",
    "context": "伊本巴圖塔離開非洲進入亞洲的第一站，在此接受守軍的入城檢查。"
  },
  {
    "name": "耶路撒冷",
    "name_en": "Jerusalem",
    "lat": 31.768,
    "lon": 35.213,
    "country": "巴勒斯坦",
    "region": "亞洲",
    "quote": "他抵達麥家之前，他其實又跑到耶路撒冷",
    "context": "朝聖途中的重要宗教聖地，伊本巴圖塔在此逗留並參訪多處聖蹟。"
  },
  {
    "name": "伯利恆",
    "name_en": "Bethlehem",
    "lat": 31.705,
    "lon": 35.202,
    "country": "巴勒斯坦",
    "region": "亞洲",
    "quote": "他有去伯利恆",
    "context": "伊本巴圖塔在耶路撒冷附近參訪的城鎮，是基督教文化中的聖地。"
  },
  {
    "name": "主誕堂",
    "name_en": "Church of the Nativity",
    "lat": 31.704,
    "lon": 35.207,
    "country": "巴勒斯坦",
    "region": "亞洲",
    "quote": "還參觀耶穌的那個誕生地點",
    "context": "位於伯利恆，是傳統公認耶穌誕生之處，伊本巴圖塔亦前往參觀。"
  },
  {
    "name": "大馬士革",
    "name_en": "Damascus",
    "lat": 33.513,
    "lon": 36.291,
    "country": "敘利亞",
    "region": "亞洲",
    "quote": "大馬士革的美，就沒有辦法用筆墨來形容",
    "context": "歷史悠久的繁榮大城，伊本巴圖塔在此地認真進修法學知識。"
  },
  {
    "name": "麥加",
    "name_en": "Mecca",
    "lat": 21.422,
    "lon": 39.826,
    "country": "沙烏地阿拉伯",
    "region": "亞洲",
    "quote": "他終於見到了賣家",
    "context": "伊斯蘭教最神聖的城市，伊本巴圖塔歷經一年的長途跋涉終於抵達。"
  },
  {
    "name": "克爾白",
    "name_en": "Kaaba",
    "lat": 21.4225,
    "lon": 39.8262,
    "country": "沙烏地阿拉伯",
    "region": "亞洲",
    "quote": "他有介紹了一個克爾白，然後說這是伊斯蘭世界就最神聖的地方",
    "context": "位於麥加禁寺中心，是全球穆斯林禮拜的方向與朝聖的核心。"
  },
  {
    "name": "黑石",
    "name_en": "Black Stone",
    "lat": 21.4225,
    "lon": 39.8262,
    "country": "沙烏地阿拉伯",
    "region": "亞洲",
    "quote": "克爾白的其中一個角有鑲一塊黑色的隕石，然後這塊隕石被叫做黑石",
    "context": "鑲嵌在克爾白角落的神聖遺物，是朝聖者親吻與巡遊的起點。"
  }
]