[
  {
    "name": "巴布亞食人族部落",
    "name_en": "Korowai Tribe region, Papua",
    "lat": -6.315,
    "lon": 139.846,
    "country": "印尼",
    "region": "亞洲",
    "quote": "重返食人豬部落，今年二月的時候，對對對，就再次回去的那個印尼的巴布亞森",
    "context": "講者成名影片的拍攝地點，也是他夢想的發想地。"
  },
  {
    "name": "約翰尼斯堡",
    "name_en": "Johannesburg",
    "lat": -26.204,
    "lon": 28.047,
    "country": "南非",
    "region": "非洲",
    "quote": "對那個約翰尼斯堡，很危險的地方",
    "context": "節目中提到的過往旅行地，強調其治安危險的印象。"
  },
  {
    "name": "阿富汗駐伊斯蘭馬巴德大使館",
    "name_en": "Afghan Embassy, Islamabad",
    "lat": 33.723,
    "lon": 73.111,
    "country": "巴基斯坦",
    "region": "亞洲",
    "quote": "他們首都在那邊有大使館，阿富汗大使館，然後你只要準備100塊美金",
    "context": "進入阿富汗前辦理簽證的地點，100美金可快速領件。"
  },
  {
    "name": "馬扎里沙里夫藍色清真寺",
    "name_en": "Blue Mosque (Shrine of Ali), Mazar-i-Sharif",
    "lat": 36.709,
    "lon": 67.111,
    "country": "阿富汗",
    "region": "亞洲",
    "quote": "那邊有一個藍色清真寺，這個藍色清真寺，其實就是很漂亮，全部都是用藍色馬賽克",
    "context": "阿富汗第四大城的地標，以極其華麗的藍色馬賽克裝飾聞名。"
  },
  {
    "name": "巴米揚大佛",
    "name_en": "Buddhas of Bamiyan",
    "lat": 34.832,
    "lon": 67.827,
    "country": "阿富汗",
    "region": "亞洲",
    "quote": "它是全世界最高的立佛嘛，站著的，那其實他就是一個，在一面山壁上面",
    "context": "曾是世界最高立佛，2001年被塔利班摧毀，現僅存遺址。"
  },
  {
    "name": "巴米揚洞窟",
    "name_en": "Bamiyan Caves",
    "lat": 34.832,
    "lon": 67.828,
    "country": "阿富汗",
    "region": "亞洲",
    "quote": "上面有上千個洞窟，早期在玄奘取經來到這個地區的時候，每一個洞窟裡面都有一尊佛像",
    "context": "圍繞在大佛周邊的佛教遺址，曾有上千尊佛像。"
  },
  {
    "name": "喀布爾",
    "name_en": "Kabul",
    "lat": 34.555,
    "lon": 69.207,
    "country": "阿富汗",
    "region": "亞洲",
    "quote": "像卡布爾，它的海拔也有1700多公尺，它其實算一個山城",
    "context": "阿富汗首都，海拔高、地形起伏，現有許多塔利班檢查哨。"
  },
  {
    "name": "坎大哈",
    "name_en": "Kandahar",
    "lat": 31.628,
    "lon": 65.737,
    "country": "阿富汗",
    "region": "亞洲",
    "quote": "或者是 Kandahar 坎大哈，塔利班的總部",
    "context": "阿富汗南部城市，塔利班組織的發源地與核心總部。"
  }
]