[
  {
    "name": "塔瑞姆",
    "name_en": "Tarim",
    "lat": 16.05,
    "lon": 48.995,
    "country": "葉門",
    "region": "亞洲",
    "quote": "那這個地方是比較小的一個城市，但是我們怎麼樣移動呢，我們從阿曼的首都馬斯喀特",
    "context": "受訪者進入葉門本土後抵達的第一座城市。"
  },
  {
    "name": "希巴姆（葉門曼哈頓）",
    "name_en": "Shibam",
    "lat": 15.926,
    "lon": 48.627,
    "country": "葉門",
    "region": "亞洲",
    "quote": "西安...在那邊可以發現人類用泥巴做的房子竟然可以蓋到三四十公尺",
    "context": "被稱為葉門曼哈頓，以極高的古老泥磚土樓聞名。"
  },
  {
    "name": "穆卡拉",
    "name_en": "Al Mukalla",
    "lat": 14.541,
    "lon": 49.124,
    "country": "葉門",
    "region": "亞洲",
    "quote": "Mukala這個一個城市，算海邊的一個城市，那邊的話就是應該說比較進步",
    "context": "葉門重要港口城市，商業較發達且有休閒娛樂場所。"
  },
  {
    "name": "索科特拉島（龍血島）",
    "name_en": "Socotra Island",
    "lat": 12.463,
    "lon": 53.823,
    "country": "葉門",
    "region": "亞洲",
    "quote": "另外一個的話就是去龍血島，龍血島，對他就是那個全世界唯一的龍血樹",
    "context": "擁有大量特有種生物的神祕島嶼，是受訪者的重頭戲。"
  },
  {
    "name": "迪克薩姆高原（龍血樹森林）",
    "name_en": "Dixam Plateau",
    "lat": 12.483,
    "lon": 53.966,
    "country": "葉門",
    "region": "亞洲",
    "quote": "來到那個龍血樹森林的時候，你會發現自己來到了一個外星球",
    "context": "島上龍血樹最集中的區域，視覺震撼如外星球。"
  },
  {
    "name": "賓拉登祖父故居",
    "name_en": "Bin Laden's Ancestral Home",
    "lat": 15.118,
    "lon": 48.331,
    "country": "葉門",
    "region": "亞洲",
    "quote": "最終的話就是要去賓拉登他阿公家，他阿公家在夜門",
    "context": "賓拉登家族在葉門的祖籍地，目前已是空屋。"
  },
  {
    "name": "蓋達鎮",
    "name_en": "Al Qaidah Town",
    "lat": 13.843,
    "lon": 44.144,
    "country": "葉門",
    "region": "亞洲",
    "quote": "發現原來在整個夜門，他竟然有個地名叫做蓋達",
    "context": "葉門境內與恐怖組織「蓋達」同名的城鎮。"
  },
  {
    "name": "撒拿",
    "name_en": "Sana'a",
    "lat": 15.354,
    "lon": 44.206,
    "country": "葉門",
    "region": "亞洲",
    "quote": "我原本是想說要去他們的首都撒拿，但撒拿的話其實不能去",
    "context": "葉門首都，因戰爭與政局複雜難以進入。"
  },
  {
    "name": "塞拉萊",
    "name_en": "Salalah",
    "lat": 17.015,
    "lon": 54.092,
    "country": "阿曼",
    "region": "亞洲",
    "quote": "搭了12個小時的夜車到Salala，在南部的大城",
    "context": "阿曼南部大城，受訪者進入葉門前的中轉站。"
  },
  {
    "name": "塔瑞姆卡特草市場",
    "name_en": "Tarim Khat Market",
    "lat": 16.053,
    "lon": 49.002,
    "country": "葉門",
    "region": "亞洲",
    "quote": "我其實都叫他獨銷家族，因為那個街區全部整個市場都是在賣卡特草",
    "context": "受訪者觀察當地人交易與吸食卡特草的核心區域。"
  }
]