[
  {
    "name": "索科特拉島 (龍血島)",
    "name_en": "Socotra Island",
    "lat": 12.463,
    "lon": 53.823,
    "country": "葉門",
    "region": "亞洲",
    "quote": "另外一個的話就是去龍血島",
    "context": "擁有特有種龍血樹，是本集探險的核心旅遊地"
  },
  {
    "name": "塔林",
    "name_en": "Tarim",
    "lat": 16.053,
    "lon": 48.998,
    "country": "葉門",
    "region": "亞洲",
    "quote": "所以我們那時候先去要到一個地方叫Tarim",
    "context": "位於葉門本土的小城市，有龐大的卡特草交易市場"
  },
  {
    "name": "希巴姆 (逐字稿稱西安/夜門曼哈頓)",
    "name_en": "Shibam",
    "lat": 15.927,
    "lon": 48.625,
    "country": "葉門",
    "region": "亞洲",
    "quote": "夜門曼哈頓",
    "context": "以五六百年歷史的泥巴高樓群聞名的世界文化遺產"
  },
  {
    "name": "蓋達",
    "name_en": "Al Qa'idah",
    "lat": 13.828,
    "lon": 44.155,
    "country": "葉門",
    "region": "亞洲",
    "quote": "他竟然有個地名叫做蓋達",
    "context": "賓拉登祖父曾居住的小鎮，現留有廢棄空屋"
  },
  {
    "name": "龍血樹森林 (狄克薩姆高原)",
    "name_en": "Diksam Plateau",
    "lat": 12.478,
    "lon": 53.987,
    "country": "葉門",
    "region": "亞洲",
    "quote": "你來到那個龍血樹森林的時候",
    "context": "生長著上千棵獨特龍血樹的壯觀森林，宛如外星球"
  }
]