[
  {
    "name": "索科特拉島 (龍血島)",
    "name_en": "Socotra Island",
    "lat": 12.463,
    "lon": 53.823,
    "country": "葉門",
    "region": "亞洲",
    "quote": "另外一個的話就是去龍血島 So-Kotra Island",
    "context": "本集主要旅遊目的地，擁有獨特生態與特有種龍血樹。"
  },
  {
    "name": "塔林",
    "name_en": "Tarim",
    "lat": 16.053,
    "lon": 48.997,
    "country": "葉門",
    "region": "亞洲",
    "quote": "我們那時候先去要到一個地方叫Tarim 那這個地方是比較小的一個城市",
    "context": "講者進入葉門本土後前往的第一個小城市。"
  },
  {
    "name": "希巴姆",
    "name_en": "Shibam",
    "lat": 15.926,
    "lon": 48.626,
    "country": "葉門",
    "region": "亞洲",
    "quote": "它叫西安 你在那邊可以發現 人類的用 應該說人類用泥巴做的房子 竟然可以蓋到三四十公尺",
    "context": "被稱為葉門曼哈頓，擁有世界文化遺產的高聳土樓。"
  },
  {
    "name": "賓拉登阿公家 (魯巴特)",
    "name_en": "Al Rubat (Bin Laden Ancestral Home)",
    "lat": 15.176,
    "lon": 48.33,
    "country": "葉門",
    "region": "亞洲",
    "quote": "最終的話就是要去賓拉登他阿公家 他阿公家在夜門",
    "context": "導遊帶領參觀的廢棄歷史名人故居。"
  },
  {
    "name": "穆卡拉",
    "name_en": "Mukalla",
    "lat": 14.542,
    "lon": 49.124,
    "country": "葉門",
    "region": "亞洲",
    "quote": "我們要去一個叫 Mukala Mukala這個一個城市 算海邊的一個城市",
    "context": "葉門第一大港口，講者在此體驗較商業化的休閒娛樂。"
  },
  {
    "name": "龍血樹森林",
    "name_en": "Dragon Blood Forest",
    "lat": 12.483,
    "lon": 53.987,
    "country": "葉門",
    "region": "亞洲",
    "quote": "你來到那個龍血樹森林的時候 你會發現自己來到了一個外星球",
    "context": "島上特有的植物景觀，帶給講者極大的視覺衝擊。"
  }
]