[
  {
    "name": "大安森林公園",
    "name_en": "Daan Forest Park",
    "lat": 25.029,
    "lon": 121.536,
    "country": "台灣",
    "region": "台灣",
    "quote": "將在大安森林公園 舉辦夏至關燈的野餐活動",
    "context": "舉辦夏至關燈野餐活動的地點",
    "image": "https://upload.wikimedia.org/wikipedia/commons/thumb/1/14/Daan_Park_20210817.jpg/330px-Daan_Park_20210817.jpg"
  },
  {
    "name": "大峽谷",
    "name_en": "Grand Canyon",
    "lat": 36.054,
    "lon": -112.14,
    "country": "美國",
    "region": "美洲",
    "quote": "我去美國是有去大峽谷",
    "context": "講者在美國旅行期間造訪的具體景點"
  },
  {
    "name": "帕拉卡斯",
    "name_en": "Paracas",
    "lat": -13.84,
    "lon": -76.22,
    "country": "秘魯",
    "region": "美洲",
    "quote": "像Paracas這個地方 它就是海邊 你可以看到海島 海獅等等的",
    "context": "可觀察海島與海獅的秘魯沿海景點"
  },
  {
    "name": "華納奇卡",
    "name_en": "Huacachina",
    "lat": -14.087,
    "lon": -75.763,
    "country": "秘魯",
    "region": "美洲",
    "quote": "華納奇卡 它是一個綠洲",
    "context": "講者推薦的秘魯沙漠綠洲景點"
  },
  {
    "name": "納斯卡線",
    "name_en": "Nazca Lines",
    "lat": -14.739,
    "lon": -75.131,
    "country": "秘魯",
    "region": "美洲",
    "quote": "納斯卡線 就是坐小飛機這樣子 它是在沙漠上 然後有神秘符號",
    "context": "位於沙漠中需搭小飛機觀賞的神秘圖騰"
  },
  {
    "name": "普諾",
    "name_en": "Puno",
    "lat": -15.84,
    "lon": -70.021,
    "country": "秘魯",
    "region": "美洲",
    "quote": "我還有去 噗嚨 噗嚨 就是TTT卡卡虎 你有聽過嗎",
    "context": "提提卡卡湖畔的城市（音譯為噗嚨）"
  },
  {
    "name": "提提卡卡湖",
    "name_en": "Lake Titicaca",
    "lat": -15.8,
    "lon": -69.4,
    "country": "秘魯",
    "region": "美洲",
    "quote": "噗嚨 噗嚨 就是TTT卡卡虎 你有聽過嗎 它就是用那個蘆葦製造出來的一個島",
    "context": "擁有著名蘆葦浮島的高山湖泊（音譯為TTT卡卡虎）"
  },
  {
    "name": "庫斯科",
    "name_en": "Cusco",
    "lat": -13.531,
    "lon": -71.967,
    "country": "秘魯",
    "region": "美洲",
    "quote": "庫斯科是秘魯的一個古城 ... 以前當初印加帝國的首都",
    "context": "印加帝國古都，前往馬丘比丘的重要門戶"
  },
  {
    "name": "馬丘比丘",
    "name_en": "Machu Picchu",
    "lat": -13.163,
    "lon": -72.545,
    "country": "秘魯",
    "region": "美洲",
    "quote": "我本來就一直很想要去秘錄 看那個馬丘比丘嘛",
    "context": "講者旅行的核心目標，印加帝國著名的遺蹟"
  }
]